City,Cloudiness,Date,Humidity,Lat,Lon,Max Temp,Windspeed
Sobolevo,80,1627342911,77,54.4299,31.8996,62.94,5.48
Punta Arenas,0,1627342827,75,-53.15,-70.9167,42.91,8.05
Albany,0,1627342680,74,42.6001,-73.9662,81.25,7.65
Baykit,27,1627342912,54,61.67,96.37,75.13,3.65
Saskylakh,70,1627342875,68,71.9167,114.0833,54.63,7.09
Hermanus,23,1627342840,61,-34.4187,19.2345,56.07,7.02
Busselton,99,1627342835,61,-33.65,115.3333,49.08,29.51
Havre-St-Pierre,40,1627342843,88,50.2334,-63.5986,64.76,3.44
Chokurdakh,97,1627342913,70,70.6333,147.9167,43.27,12.46
Broome,1,1627342915,51,42.2506,-75.833,80.98,6.91
Taree,1,1627342881,71,-31.9,152.4667,56.1,6.91
Vanavara,14,1627342915,51,60.34,102.2797,73.06,5.68
Port Lincoln,33,1627342916,50,-34.7333,135.8667,58.95,26.37
Pisco,0,1627342845,77,-13.7,-76.2167,66.25,16.11
Gorom-Gorom,83,1627342916,56,14.4439,-0.2361,82.74,7.52
Pimentel,40,1627342917,83,-6.8367,-79.9342,68.29,3.0
Hilo,90,1627342832,91,19.7297,-155.09,77.25,6.91
Kapaa,75,1627342830,76,22.0752,-159.319,84.52,4.0
Ancud,48,1627342918,77,-41.8697,-73.8203,44.13,6.76
Laguna,1,1627342918,26,38.421,-121.4238,98.24,7.0
Sindor,32,1627342918,95,62.8629,51.8905,43.66,8.75
Baruun-Urt,97,1627342919,68,46.6806,113.2792,62.74,3.06
Ushuaia,75,1627342834,80,-54.8,-68.3,35.26,9.22
Bluff,26,1627342849,73,-46.6,168.3333,49.8,20.38
Golden,20,1627342919,18,39.7555,-105.2211,95.76,7.0
Butaritari,68,1627342877,74,3.0707,172.7902,82.54,8.05
Provideniya,90,1627342870,81,64.3833,-173.3,50.11,4.47
Lorengau,69,1627342875,70,-2.0226,147.2712,84.88,3.4
Russell,20,1627342921,85,32.3502,-85.1999,92.91,6.91
Murovane,56,1627342921,90,49.5214,22.9367,63.61,5.53
Haines Junction,100,1627342921,77,60.7522,-137.5108,57.15,2.3
Qaanaaq,100,1627342849,83,77.484,-69.3632,42.33,9.66
New Norfolk,100,1627342846,83,-42.7826,147.0587,55.89,4.76
East London,88,1627342867,26,-33.0153,27.9116,63.03,11.99
Port Alfred,98,1627342837,32,-33.5906,26.891,60.85,9.91
Geraldton,90,1627342864,67,-28.7667,114.6,63.12,24.16
Rikitea,74,1627342832,77,-23.1203,-134.9692,74.64,18.23
Nova Londrina,9,1627342924,34,-22.7658,-52.985,74.1,3.51
Bambous Virieux,75,1627342842,94,-20.3428,57.7575,68.25,17.27
Airai,40,1627342925,37,-8.9266,125.4092,67.89,3.18
Carnarvon,75,1627342925,74,-24.8667,113.6333,68.07,9.22
Kwinana,86,1627342926,68,-32.25,115.7667,58.8,36.44
Mataura,41,1627342831,84,-46.1927,168.8643,49.48,3.91
Perené,38,1627342926,74,-10.9492,-75.2261,74.12,0.92
Kaitangata,58,1627342867,55,-46.2817,169.8464,53.92,8.63
Adrar,2,1627342927,20,20.5022,-10.0711,91.08,13.8
Ashland,0,1627342652,56,40.8167,-82.2665,84.74,3.04
Cuenca,75,1627342927,59,-2.8833,-78.9833,62.73,9.22
Cape Town,0,1627342563,60,-33.9258,18.4232,58.08,1.99
Lüderitz,0,1627342928,63,-26.6481,15.1594,60.84,4.83
Klaksvík,100,1627342929,99,62.2266,-6.589,50.92,5.7
Maniitsoq,57,1627342929,76,65.4167,-52.9,51.85,13.69
Yerbogachën,50,1627342929,55,61.2767,108.0108,75.49,6.44
Yellowknife,40,1627342835,60,62.456,-114.3525,68.52,16.11
Vaini,75,1627342868,88,-21.2,-175.2,77.16,9.22
Krasnosel'kup,100,1627342930,96,65.7,82.4667,54.97,13.22
Pecos,1,1627342930,13,31.4229,-103.4932,101.23,9.22
Wajir,63,1627342931,70,1.7471,40.0573,72.43,17.69
Tiksi,65,1627342826,87,71.6872,128.8694,39.04,10.07
Flinders,67,1627342931,61,-34.5833,150.8552,66.06,4.0
Dingle,100,1627342865,79,10.9995,122.6711,83.14,13.87
Atuona,47,1627342659,69,-9.8,-139.0333,77.72,21.56
Iskateley,100,1627342933,93,67.6803,53.1512,43.74,9.93
Tuatapere,74,1627342934,80,-46.1333,167.6833,49.82,5.03
Gravdal,14,1627342934,89,68.1214,13.5031,54.73,8.59
Avarua,40,1627342876,73,-21.2078,-159.775,78.85,9.22
Kabare,99,1627342935,90,-2.4683,28.8242,59.56,1.66
Upernavik,100,1627342869,91,72.7868,-56.1549,42.35,3.91
Andi,66,1627342935,91,42.7836,46.2617,54.84,3.62
Ponta do Sol,6,1627342936,79,32.6667,-17.1,74.03,7.25
Yar-Sale,23,1627342887,73,66.8333,70.8333,48.72,7.07
Östersund,90,1627342936,59,63.1792,14.6357,66.65,8.05
Sitka,40,1627342828,72,57.0531,-135.33,62.49,6.91
Chui,51,1627342856,81,-33.6971,-53.4616,47.8,10.94
Vila Franca do Campo,55,1627342937,89,37.7167,-25.4333,70.21,6.58
Saint George,46,1627342625,44,37.1041,-113.5841,81.54,13.6
Dikson,100,1627342839,100,73.5069,80.5464,38.16,3.53
Mahébourg,75,1627342842,94,-20.4081,57.7,68.29,17.27
Kavieng,40,1627342938,65,-2.5744,150.7967,84.7,6.38
Port Elizabeth,0,1627342828,26,-33.918,25.5701,69.1,13.8
Vostok,78,1627342891,68,46.4856,135.8833,81.95,2.19
Arlit,100,1627342939,26,18.7369,7.3853,95.05,17.67
Verkhnyaya Balkariya,81,1627342940,92,43.1279,43.4573,59.92,4.68
Sørland,16,1627342940,94,67.667,12.6934,53.24,11.61
Pevek,87,1627342940,89,69.7008,170.3133,36.36,16.75
Vestmannaeyjar,100,1627342854,83,63.4427,-20.2734,50.86,12.17
Ribeira Grande,25,1627342838,89,38.5167,-28.7,70.83,10.11
Asău,47,1627342941,78,46.4333,26.4,66.96,5.23
Barrow,90,1627342857,87,71.2906,-156.7887,48.22,8.05
Esil,46,1627342942,54,51.9556,66.4042,58.24,1.95
Lufilufi,46,1627342942,73,-13.8745,-171.5986,83.98,12.19
Chapais,94,1627342943,87,49.7834,-74.8492,55.18,9.33
Puerto Ayora,45,1627342839,83,-0.7393,-90.3518,72.55,8.01
Vao,89,1627342803,61,-22.6667,167.4833,68.23,17.07
Tasiilaq,53,1627342871,91,65.6145,-37.6368,48.36,4.25
Castro,7,1627342855,63,-24.7911,-50.0119,58.44,4.54
Ilulissat,20,1627342944,54,69.2167,-51.1,55.42,29.93
Tautira,47,1627342944,75,-17.7333,-149.15,82.42,8.68
De-Kastri,99,1627342945,86,51.4667,140.7833,72.52,0.54
Severo-Kuril'sk,100,1627342853,87,50.6789,156.125,60.76,7.43
Baymak,7,1627342945,63,52.5933,58.3225,50.36,4.36
Chegdomyn,100,1627342946,96,51.1167,133.0167,71.38,2.8
Irbeyskoye,15,1627342946,94,55.6428,95.4522,66.43,4.76
Burriana,2,1627342946,76,39.889,-0.085,73.09,3.74
Slave Lake,1,1627342929,60,55.2834,-114.769,69.78,5.75
Saint Paul Harbor,90,1627342890,59,57.79,-152.4072,62.11,5.75
Biltine,90,1627342948,73,14.5333,20.9167,77.79,6.35
Vardø,57,1627342854,86,70.3705,31.1107,46.42,7.58
Alice Springs,57,1627342949,18,-23.7,133.8833,67.55,21.85
Hobart,75,1627342846,82,-42.8794,147.3294,56.23,1.99
Nikolskoye,10,1627342839,71,59.7035,30.7861,62.49,3.56
Malanje,52,1627342949,28,-9.5402,16.341,64.42,2.86
Sainte-Anne-des-Monts,54,1627342950,77,49.124,-66.4924,66.07,2.3
Atbasar,20,1627342950,53,51.8,68.3333,56.61,5.84
Departamento de Maldonado,6,1627342951,90,-34.6667,-54.9167,50.23,6.58
Ferme-Neuve,60,1627342951,80,46.7001,-75.4493,74.98,5.32
Rodolfo Sánchez Taboada,61,1627342951,84,31.7167,-116.5667,73.18,3.0
Binon-an,100,1627342952,78,11.3947,123.1426,83.43,18.75
Lagoa,86,1627342952,88,39.05,-27.9833,70.79,8.68
Stornoway,90,1627342953,94,58.2093,-6.3865,63.93,3.44
Lavrentiya,100,1627342953,97,65.5833,-171.0,45.72,3.71
Jacareacanga,94,1627342954,47,-6.2222,-57.7528,77.77,1.92
Copiapó,0,1627342955,59,-27.3667,-70.3333,49.69,0.87
Batagay-Alyta,75,1627342955,73,67.8006,130.4114,55.18,11.25
Aleksandrov Gay,2,1627342956,40,50.147,48.5704,67.1,7.38
Santa Isabel Rio Negro,99,1627342956,89,-0.4139,-65.0192,75.02,2.93
Uyemskiy,40,1627342957,76,64.4743,40.8524,50.05,2.24
Giohar,99,1627342878,84,2.7809,45.5005,73.31,16.82
Luanda,62,1627342942,88,-8.8368,13.2343,69.8,4.61
Kieta,32,1627342957,68,-6.2167,155.6333,85.28,4.65
Chikhli,100,1627342958,86,20.35,76.25,72.01,12.73
Havøysund,54,1627342958,82,70.9963,24.6622,50.88,8.14
Benjamín Aceval,99,1627342959,79,-24.9667,-57.5667,64.54,13.04
Leeds,0,1627342960,64,53.7964,-1.5477,65.34,1.99
Alofi,40,1627342960,74,-19.0595,-169.9187,80.49,3.44
Sioux Lookout,90,1627342961,72,50.1001,-91.917,66.58,5.75
San Patricio,4,1627342887,47,28.017,-97.5169,93.88,11.36
Mitú,90,1627342961,98,1.1983,-70.1733,72.23,1.74
Zhigansk,24,1627342962,63,66.7697,123.3711,57.58,16.87
Waingapu,52,1627342962,75,-9.6567,120.2641,77.85,7.02
Daru,85,1627342850,78,-9.0763,143.2092,79.77,16.64
Souillac,75,1627342963,94,-20.5167,57.5167,68.38,17.27
Goderich,0,1627342964,57,43.7501,-81.7165,80.91,2.3
Yulara,35,1627342965,22,-25.2406,130.9889,62.44,10.36
Kimbe,71,1627342965,76,-5.5502,150.1429,81.84,3.27
Constitución,0,1627342966,67,-35.3333,-72.4167,46.42,12.8
Sibu,40,1627342966,94,2.3,111.8167,75.51,1.99
Torbay,75,1627342892,85,47.6666,-52.7314,60.58,8.05
Makakilo City,40,1627342967,52,21.3469,-158.0858,88.12,12.66
Traralgon,53,1627342967,73,-38.1833,146.5333,63.41,5.91
Zyryanka,73,1627342968,45,65.75,150.85,56.21,16.4
Verkhnetulomskiy,9,1627342968,94,68.6073,31.7962,33.93,0.98
Bandarbeyla,34,1627342968,76,9.4942,50.8122,76.93,24.18
Mareeba,79,1627342969,76,-17.0,145.4333,72.48,5.28
Hualmay,28,1627342969,83,-11.0964,-77.6139,64.35,10.29
Along,100,1627342970,99,28.1667,94.7667,75.07,1.28
Carlsbad,90,1627342970,85,33.1581,-117.3506,88.39,4.0
Flin Flon,40,1627342970,43,54.7682,-101.865,73.24,4.61
Naze,100,1627342971,85,28.3667,129.4833,79.72,13.38
Altay,5,1627342971,47,47.8667,88.1167,71.19,3.6
Tortolì,0,1627342972,83,39.9256,9.6572,78.82,16.11
Angoche,51,1627342972,84,-16.2325,39.9086,66.92,10.31
Bredasdorp,70,1627342840,62,-34.5322,20.0403,52.92,4.61
Carutapera,81,1627342973,93,-1.195,-46.02,75.04,6.35
Redlands,40,1627342973,52,34.0556,-117.1825,96.31,5.01
Katsuura,88,1627342830,88,35.1333,140.3,78.19,23.96
Bubaque,100,1627342867,85,11.2833,-15.8333,79.72,12.35
Tuktoyaktuk,90,1627342889,71,69.4541,-133.0374,51.8,3.44
Khatanga,66,1627342975,62,71.9667,102.5,63.19,17.74
Nantucket,75,1627342975,94,41.2835,-70.0995,81.01,10.36
Bonavista,14,1627342689,86,48.6499,-53.1147,60.8,13.42
Ostrovnoy,100,1627342898,88,68.0531,39.5131,45.86,20.07
Salair,67,1627342976,96,54.2312,85.7972,56.55,7.11
Dubbo,23,1627342976,81,-32.25,148.6167,48.33,4.61
Mar del Plata,40,1627342897,66,-38.0023,-57.5575,42.01,1.99
Brae,89,1627342855,96,60.3964,-1.353,58.91,13.38
Taltal,12,1627342977,74,-25.4,-70.4833,58.41,5.06
Mount Hagen,85,1627342978,65,-5.8581,144.2274,70.61,2.44
Dalby,0,1627342978,42,-27.1833,151.2667,50.7,5.3
Touros,2,1627342978,85,-5.1989,-35.4608,72.5,10.38
Santa María del Oro,28,1627342979,21,25.9333,-105.3667,85.77,16.51
Cayce,40,1627342979,62,33.9657,-81.074,91.71,8.05
Mauchline,75,1627342980,88,55.516,-4.3793,59.92,5.75
Lebu,17,1627342844,73,-37.6167,-73.65,46.51,17.09
Korla,0,1627342980,26,41.7597,86.1469,82.69,10.4
Arraial do Cabo,0,1627342881,78,-22.9661,-42.0278,71.56,13.8
Nauta,72,1627342981,94,-4.5061,-73.5757,73.96,2.57
Smithers,75,1627342982,72,54.7804,-127.1743,61.12,2.3
Hohhot,0,1627342982,77,40.8106,111.6522,64.69,4.47
Codrington,32,1627342879,68,-38.2667,141.9667,51.58,19.19
Faanui,66,1627342983,71,-16.4833,-151.75,79.48,12.5
Bilibino,62,1627342983,46,68.0546,166.4372,55.98,14.25
Santa Fe,0,1627342860,54,-31.6333,-60.7,55.99,7.0
Hithadhoo,97,1627342899,77,-0.6,73.0833,80.31,7.92
Jieshou,100,1627342984,97,33.2634,115.3611,76.62,10.65
Karratha,43,1627342872,68,-20.7377,116.8463,69.89,7.23
Kalabo,100,1627342985,49,-14.97,22.6814,50.76,5.57
St. George's,40,1627342985,89,12.0564,-61.7485,80.28,0.0
Lakhīmpur,50,1627342985,86,27.95,80.7667,81.34,4.27
Bethel,1,1627342704,73,41.3712,-73.414,84.69,4.61
Palmer,29,1627342953,56,42.1584,-72.3287,81.55,4.09
Birao,100,1627342986,96,10.2849,22.7882,70.29,3.94
Plessisville,41,1627342987,93,46.2186,-71.762,73.29,5.7
Guiratinga,3,1627342987,30,-16.3494,-53.7583,72.73,3.76
Panguna,29,1627342987,62,-6.3164,155.4848,81.46,1.48
Jalu,0,1627342989,48,29.0331,21.5482,79.45,8.16
Ossora,100,1627342989,90,59.2353,163.0719,64.47,8.66
Paragominas,53,1627342990,56,-2.9667,-47.4833,75.69,3.89
Kushmurun,63,1627342990,60,52.4503,64.6311,55.94,4.65
Deputatsky,100,1627342834,88,69.3,139.9,42.55,2.13
Matara,95,1627342991,90,5.9485,80.5353,78.37,9.8
Mitchell,1,1627342714,52,43.7094,-98.0298,91.38,13.8
Shimoda,100,1627342991,87,34.6667,138.95,75.56,0.67
Sibolga,87,1627342992,85,1.7427,98.7792,77.13,2.98
Hamilton,20,1627342894,57,39.1834,-84.5333,86.09,10.36
Ruidoso,1,1627342992,68,33.3317,-105.673,80.1,0.0
São João da Barra,0,1627342882,81,-21.6403,-41.0511,71.96,18.23
Huanren,38,1627342993,65,41.2647,125.3667,81.73,1.14
Jamestown,1,1627342993,47,42.097,-79.2353,81.72,8.05
Skiathos,1,1627342994,48,39.1623,23.4909,77.97,5.48
Nola,45,1627342994,68,40.922,14.5329,85.93,2.06
Zeya,57,1627342875,62,53.75,127.2667,75.4,3.06
Saint-Philippe,66,1627342860,78,-21.3585,55.7679,63.95,11.68
Odienné,24,1627342996,97,9.51,-7.5692,70.65,4.81
Pangnirtung,60,1627342996,86,66.1451,-65.7125,55.2,3.22
Manjacaze,59,1627342997,76,-24.7117,33.8828,61.47,3.15
Kavaratti,100,1627342997,80,10.5669,72.642,81.09,19.22
Trelew,40,1627342997,81,-43.249,-65.3051,43.07,17.27
Binuangan,98,1627342998,69,8.9153,124.7883,82.42,9.35
Porto-Novo,34,1627342998,77,6.4965,2.6036,78.62,10.74
Saldanha,23,1627342894,85,-33.0117,17.9442,55.45,9.82
Wakkanai,0,1627342999,72,45.4094,141.6739,74.41,8.81
Kaeo,27,1627342847,73,-35.1,173.7833,60.33,13.53
Bengkulu,3,1627342845,76,-3.8004,102.2655,74.17,5.01
Isangel,75,1627343000,65,-19.55,169.2667,78.91,5.75
Pochutla,100,1627342872,81,15.7432,-96.4661,84.81,0.47
Port Blair,98,1627342860,86,11.6667,92.75,81.72,19.95
Darnah,0,1627343000,69,32.767,22.6367,76.03,11.03
Unaí,1,1627343001,39,-16.3575,-46.9061,66.56,1.54
Medvedka,8,1627343001,96,61.1629,46.387,44.06,4.97
Vredendal,18,1627343002,44,-31.6683,18.5012,57.29,4.16
Mirante do Paranapanema,1,1627343002,33,-22.2919,-51.9064,76.93,7.18
Cayenne,0,1627343002,81,4.9333,-52.3333,82.09,4.0
Te Anau,68,1627343003,83,-45.4167,167.7167,46.31,4.32
Bambanglipuro,15,1627343003,85,-7.95,110.2833,73.54,3.29
Ampanihy,69,1627343005,67,-24.7,44.75,61.59,17.4
Mahon,0,1627343005,64,39.8885,4.2658,75.76,6.91
Moerai,89,1627343006,84,-22.4333,-151.3333,75.42,14.32
Lowestoft,77,1627342761,93,52.4752,1.7516,64.45,8.19
Strezhevoy,63,1627343006,82,60.7333,77.5889,53.58,11.34
Cherskiy,6,1627342861,49,68.75,161.3,53.8,18.39
Mundo Nuevo (Ojo de Agua),37,1627342859,76,18.7,-95.5,82.74,8.61
Santiago del Estero,0,1627343007,32,-27.7951,-64.2615,53.8,9.73
Talovaya,0,1627343007,53,51.1144,40.73,62.11,4.79
Ilorin,0,1627343008,94,8.5,4.55,73.76,5.75
Rocha,9,1627343008,88,-34.4833,-54.3333,45.55,7.07
Şile,0,1627343009,75,41.1754,29.6133,72.57,3.09
Tarko-Sale,100,1627343009,94,64.9225,77.785,47.93,20.56
Northam,100,1627343009,95,51.0333,-4.2167,65.01,10.4
Quang Ngai,56,1627342855,63,15.1167,108.8,84.22,4.18
Mossamedes,0,1627343003,80,-15.1961,12.1522,65.19,1.63
Vila do Maio,29,1627343011,84,15.1333,-23.2167,77.79,10.8
Berlevåg,60,1627343012,87,70.8578,29.0864,45.28,0.78
Saint-Pierre,75,1627343012,88,-21.3393,55.4781,64.04,5.75
Swan Hill,5,1627343012,51,-35.3378,143.5544,56.19,16.62
Carauari,85,1627343013,67,-4.8828,-66.8958,79.34,2.71
Cradock,60,1627343013,34,-32.1642,25.6192,45.32,9.82
Pabradė,72,1627343014,62,55.0,25.7833,72.03,7.74
Boa Vista,75,1627343014,74,2.8197,-60.6733,82.38,10.36
Songkhla,65,1627343015,90,6.8333,100.6667,77.05,4.21
Acapulco de Juárez,90,1627342987,74,16.8634,-99.8901,87.62,6.91
Nhulunbuy,85,1627343016,83,-12.2333,136.7667,77.61,6.91
Barra de Tecoanapa,97,1627343016,77,16.5167,-98.75,83.93,5.77
Lata,8,1627343016,98,40.1629,-8.3327,63.01,2.57
Virginia Beach,90,1627342865,84,36.8529,-75.978,79.02,14.97
Scarborough,12,1627343010,87,54.2797,-0.4044,63.54,6.96
Atar,17,1627343017,21,20.5169,-13.0499,92.82,3.4
Dajal,99,1627343017,48,29.5577,70.3762,93.99,18.92
Bam,13,1627343018,15,29.106,58.357,88.56,18.99
Bazarnye Mataki,31,1627343018,70,54.8833,49.9333,55.72,7.65
Powell River,20,1627343019,57,49.8496,-124.5361,84.04,8.05
Belaya Gora,79,1627343019,43,68.5333,146.4167,57.29,11.48
Marshall,75,1627342982,72,34.3834,-86.3333,86.13,1.99
Becerril,93,1627343020,93,9.7041,-73.2793,75.72,3.78
Krasnyy Chikoy,87,1627343020,74,50.3643,108.7512,62.35,2.73
Ganzhou,5,1627343020,73,28.8184,115.4327,84.79,4.16
Tashara,65,1627343021,80,55.5195,83.5094,56.23,8.34
Podor,0,1627343021,65,16.6527,-14.9587,84.15,4.61
Caravelas,4,1627343022,84,-17.7125,-39.2481,70.03,5.37
Sardulgarh,74,1627343022,79,29.7,75.25,83.89,9.75
Bayjī,0,1627343023,19,34.9311,43.487,97.3,8.77
Ponferrada,19,1627343023,84,42.5466,-6.5962,65.21,1.01
The Pas,1,1627343023,53,53.8251,-101.2541,73.42,3.65
Paita,0,1627343024,81,-5.0892,-81.1144,72.16,16.84
Fortuna,1,1627342859,80,40.5982,-124.1573,97.48,14.97
Ahipara,13,1627342854,66,-35.1667,173.1667,58.86,16.67
Monrovia,97,1627343025,83,6.3005,-10.7969,76.59,12.15
Bichena,100,1627343025,92,10.45,38.2,52.52,4.83
Hong Kong,95,1627342587,85,22.2855,114.1577,88.32,5.99
Vágur,100,1627343026,99,61.4732,-6.8119,52.2,8.86
Hay River,75,1627343026,56,60.8156,-115.7999,71.58,4.61
Taywarah,32,1627343027,32,33.35,64.4167,59.09,7.25
Omboué,72,1627343027,83,-1.5746,9.2618,71.49,5.82
Iqaluit,75,1627343027,81,63.7506,-68.5145,49.73,2.3
Suntar,45,1627343028,51,62.1444,117.6319,78.82,3.2
Tabou,100,1627343028,78,4.423,-7.3528,75.94,9.73
Padang,18,1627343029,87,-0.9492,100.3543,77.68,3.0
Vila,21,1627343029,87,42.0304,-8.1588,58.75,2.91
Kidal,100,1627343029,36,18.4411,1.4078,88.59,7.76
Sorong,58,1627343030,83,-0.8833,131.25,80.53,8.16
Makkah al Mukarramah,83,1627342936,36,21.4267,39.8261,88.09,6.55
Cidreira,100,1627342841,98,-30.1811,-50.2056,62.26,6.87
Kiruna,71,1627343031,82,67.8557,20.2251,56.32,2.3
Leningradskiy,61,1627343031,79,69.3833,178.4167,42.06,7.67
Biak,76,1627343031,74,-0.9131,122.8766,76.93,6.49
Ozernovskiy,100,1627343032,93,51.5,156.5167,59.09,8.43
Nowy Dwór Gdański,64,1627343032,96,54.2131,19.1177,70.0,6.11
Cairns,75,1627343033,69,-16.9167,145.7667,77.11,9.22
Beringovskiy,100,1627343034,92,63.05,179.3167,53.42,7.58
Namatanai,33,1627343035,65,-3.6667,152.4333,84.2,4.74
Menongue,22,1627343035,49,-14.6585,17.691,47.64,6.06
Nelson Bay,4,1627343035,67,-32.7167,152.15,61.95,1.99
Chernyshevskiy,9,1627343036,47,63.0128,112.4714,77.18,0.76
Kiryat Gat,0,1627343036,83,31.61,34.7642,79.81,5.14
Esperance,35,1627342848,66,-33.8667,121.9,55.24,34.34
Tateyama,75,1627343037,83,34.9833,139.8667,78.1,13.8
Mokhsogollokh,54,1627343037,54,61.4681,128.9203,76.87,9.1
Bucerías,75,1627342991,74,20.75,-105.3333,85.98,6.91
São Filipe,24,1627342874,83,14.8961,-24.4956,75.07,9.55
Fairbanks,1,1627343038,48,64.8378,-147.7164,74.01,3.0
Black Forest,20,1627343038,30,39.0131,-104.7008,87.35,1.99
Dandong,27,1627343039,73,40.1292,124.3947,81.25,2.95
Nālūt,0,1627343039,20,30.3333,10.85,83.08,15.64
Jutaí,99,1627343040,74,-5.1833,-68.9,79.43,1.63
Sundargarh,100,1627343040,83,22.1167,84.0333,78.85,8.39
Kulhudhuffushi,100,1627343041,75,6.6221,73.07,82.04,13.24
Itarema,19,1627343041,81,-2.9248,-39.9167,79.16,18.32
Yining,39,1627343041,81,29.0361,114.5636,81.84,4.32
Margate,50,1627343042,90,51.3813,1.3862,65.03,1.99
Shubarkuduk,0,1627343042,38,49.1447,56.4872,62.74,8.79
Gaoua,47,1627343043,74,10.2992,-3.2508,76.03,7.31
Dolgorukovo,42,1627343043,63,52.3195,38.3453,63.59,0.69
Tegul'det,100,1627343043,97,57.3064,88.1667,62.47,6.89
Ayan,8,1627343044,55,56.45,138.1667,70.57,7.63
Vila Velha,40,1627343044,88,-20.3297,-40.2925,71.55,6.91
Nome,90,1627343046,87,64.5011,-165.4064,50.07,9.22
Sakaiminato,75,1627343005,89,35.55,133.2333,80.53,3.44
Sinaloa,12,1627343046,44,25.0,-107.5,94.62,11.18
Vyartsilya,49,1627343047,83,62.1764,30.693,59.95,1.3
Kapuskasing,75,1627343047,59,49.4169,-82.4331,66.29,3.44
Koumac,99,1627343047,59,-20.5667,164.2833,72.54,8.25
Baza,9,1627343048,82,37.4907,-2.7726,71.42,1.99
Kencong,26,1627343049,83,-8.2833,113.3667,73.53,2.28
Chabahar,47,1627343050,86,25.2919,60.643,83.7,5.44
Husavik,74,1627342872,82,66.0449,-17.3389,49.91,1.95
Maïné Soroa,100,1627343050,83,13.2114,12.0241,75.74,8.99
Port Hardy,75,1627343051,77,50.6996,-127.4199,62.78,10.36
George Town,20,1627342848,88,5.4112,100.3354,82.89,0.0
Tommot,75,1627343051,69,58.9564,126.2925,70.07,4.83
Benguela,62,1627343052,85,-12.5763,13.4055,69.82,3.85
Peniche,3,1627342877,89,39.3558,-9.3811,66.72,15.19
Kloulklubed,100,1627343052,79,7.0419,134.2556,82.9,17.96
Yanacancha,97,1627343053,87,-10.2411,-76.6456,41.65,0.83
Launceston,90,1627343053,97,-41.45,147.1667,54.81,1.01
Kinwat,100,1627343054,82,19.6333,78.2,75.54,13.8
Conceição do Araguaia,44,1627343055,36,-8.2578,-49.2647,78.22,3.56
Abu Dhabi,0,1627342989,41,24.4667,54.3667,96.91,3.44
Dukat,100,1627343056,87,62.55,155.55,48.25,4.72
Temir,28,1627343056,33,49.1414,57.13,66.22,12.66
Senneterre,83,1627343056,71,48.3835,-77.2328,68.22,9.44
Luebo,85,1627343057,39,-5.35,21.4167,66.27,2.04
Cabo San Lucas,1,1627342621,66,22.8909,-109.9124,94.8,12.66
Birobidzhan,98,1627343057,69,48.8,132.95,82.47,2.28
Phibun Mangsahan,95,1627343058,89,15.2447,105.2291,78.78,8.28
Belyy Yar,0,1627343058,88,53.6039,91.3903,66.09,0.0
Tiarei,49,1627343029,75,-17.5333,-149.3333,82.42,7.49
Teahupoo,46,1627343059,74,-17.8333,-149.2667,76.96,9.48
Honggang,100,1627343059,93,46.4667,124.8667,71.55,10.78
Bauchi,100,1627343060,97,10.5,10.0,69.53,3.18
Khasan,64,1627343060,76,42.4308,130.6434,77.45,1.41
Ponta Delgada,75,1627343060,94,37.7333,-25.6667,68.72,8.05
Nabire,86,1627343061,69,-3.3667,135.4833,82.74,1.16
Ocós,100,1627343061,71,14.5094,-92.1933,86.5,3.78
Salinópolis,41,1627343062,81,-0.6136,-47.3561,79.14,10.71
Araouane,55,1627343062,26,18.9048,-3.5265,98.71,13.15
Virtsu,99,1627343062,76,58.5716,23.5115,71.58,11.36
Deep River,59,1627343063,68,46.1001,-77.4995,76.75,4.9
Coral Hills,20,1627343063,73,38.8704,-76.9211,85.23,5.99
Poum,100,1627343064,67,-20.2333,164.0167,71.35,8.84
Baturaja,12,1627343064,89,-4.1333,104.1667,69.08,2.93
Werdohl,60,1627343064,52,51.2667,7.7667,63.14,1.01
Nioro,87,1627343065,77,13.35,-15.75,78.66,7.34
Izumo,20,1627343065,83,35.3667,132.7667,80.49,5.75
Srīsailain,87,1627342955,87,16.0833,78.8667,72.68,12.75
Akhmīm,0,1627343066,26,26.5622,31.745,82.6,6.58
Ulaangom,8,1627343066,54,49.9811,92.0667,68.76,1.39
Mlonggo,2,1627343067,71,-6.5333,110.7,69.69,4.65
Altamont,1,1627343067,25,42.2068,-121.7372,93.88,1.01
Kolvereid,13,1627343067,63,64.8655,11.6047,65.14,8.21
Disna,60,1627343068,76,55.568,28.1971,64.69,5.91
Āstāneh-ye Ashrafīyeh,0,1627343068,65,37.2596,49.9444,77.92,0.81
Mount Gambier,46,1627343069,66,-37.8333,140.7667,49.91,17.27
Kitui,40,1627343069,77,-1.367,38.0106,56.64,3.09
West Bay,20,1627343069,74,19.3667,-81.4167,86.07,1.99
Auburn Hills,40,1627343070,50,42.6875,-83.2341,88.68,1.99
Aklavik,90,1627342884,77,68.2191,-135.0107,63.32,3.44
Luleå,75,1627343070,82,65.5842,22.1547,64.47,2.3
Talnakh,78,1627342870,65,69.4865,88.3972,72.66,8.08
Progreso,42,1627343071,73,21.2833,-89.6667,86.11,8.84
Omsukchan,100,1627343071,85,62.5333,155.8,50.76,6.2
Ruska Poliana,68,1627343072,60,49.417,31.9201,69.67,5.55
Buchanan,100,1627343072,86,5.8808,-10.0467,75.58,10.96
Clyde River,90,1627342898,93,70.4692,-68.5914,39.43,5.75
Rantoul,1,1627343073,53,40.3084,-88.1559,86.45,4.61
Nizhniy Tsasuchey,46,1627343073,73,50.5167,115.1333,64.26,10.02
Burns Lake,63,1627343074,41,54.2331,-125.7533,60.22,6.82
Vitry-le-François,50,1627342969,93,48.7333,4.5833,64.81,6.4
Peremyshlyany,75,1627343074,90,49.6652,24.5585,68.34,8.19
Mogadishu,85,1627342975,82,2.0371,45.3438,76.1,21.77
Villa Vicente Guerrero,67,1627343075,65,19.1194,-98.1708,65.19,6.91
Saint-Leu,32,1627343075,72,-21.15,55.2833,63.43,10.2
Faya,73,1627343076,73,18.3851,42.4509,68.11,5.28
Nacala,11,1627343076,86,-14.5428,40.6728,65.28,11.9
Kruisfontein,73,1627343077,27,-34.0033,24.7314,67.89,15.64
Bumba,100,1627343077,85,2.1833,22.4667,73.22,2.93
Portland,20,1627343077,40,45.5234,-122.6762,92.97,3.0
Mnogovershinnyy,100,1627343078,58,53.9353,139.9242,71.49,3.02
Yarmouth,1,1627343013,73,41.7057,-70.2286,81.01,8.01
Roebourne,49,1627343078,65,-20.7833,117.1333,69.87,7.54
Thompson,40,1627342881,33,55.7435,-97.8558,71.76,5.75
Ha Tinh,100,1627343079,73,18.3333,105.9,83.03,7.38
Coracora,16,1627343079,51,-15.0333,-73.7833,48.36,1.3
Hornepayne,77,1627343080,58,49.2138,-84.7705,68.59,3.96
Raudeberg,81,1627343080,74,61.9875,5.1352,66.87,7.52
Ambon City,20,1627342866,89,-3.6954,128.1814,78.94,2.3
Arrondissement d'Arcachon,0,1627343081,94,44.5875,-1.0519,62.92,0.0
Laas,67,1627343081,90,46.6166,10.7002,63.48,2.84
Eyl,66,1627343082,58,7.9803,49.8164,78.39,21.5
Shchebetovka,77,1627343083,77,44.9333,35.15,73.15,9.6
Logroño,0,1627343083,77,42.4667,-2.45,60.3,0.0
Trivandrum,40,1627343083,89,8.4833,76.9167,78.78,4.61
Agadez,32,1627343084,40,19.75,10.25,87.73,10.49
Kjøpsvik,21,1627343084,81,68.097,16.3742,52.18,3.85
Nouadhibou,0,1627342886,88,20.931,-17.0347,69.78,21.85
Hasaki,100,1627343085,85,35.7333,140.8333,73.8,16.28
Inhambane,39,1627343085,68,-23.865,35.3833,63.37,8.41
Emerald,0,1627343086,44,-23.5333,148.1667,59.14,5.75
Maragogi,35,1627343086,90,-9.0122,-35.2225,73.45,8.23
Lompoc,75,1627343086,75,34.6391,-120.4579,78.01,6.91
Yarensk,21,1627343087,95,62.1675,49.0916,41.99,7.2
Rybnaya Sloboda,16,1627343087,66,55.4613,50.1409,55.38,9.08
Herat Province,0,1627343088,31,34.5,62.0,81.27,30.47
Turka,56,1627343088,88,49.1541,23.0297,67.15,6.64
Severnoye,95,1627343088,79,56.3491,78.3619,51.49,8.57
Henties Bay,0,1627343089,56,-22.116,14.2845,65.86,1.01
Santa Maria,90,1627343086,100,-29.6842,-53.8069,63.7,3.44
Narsaq,27,1627342864,72,60.9167,-46.05,55.62,0.67
Balaipungut,62,1627343090,94,1.05,101.2833,77.41,2.06
Broken Hill,7,1627343090,41,-31.95,141.4333,56.91,18.41
Oranjemund,0,1627343090,67,-28.55,16.4333,59.0,6.62
Saint-Augustin,98,1627342863,82,51.226,-58.6502,60.85,8.3
Salalah,75,1627342894,83,17.0151,54.0924,78.89,4.61
Naica,78,1627343091,14,27.85,-105.4833,93.38,9.8
Norman Wells,90,1627342852,55,65.282,-126.8329,64.44,11.5
Tilichiki,100,1627342895,98,60.4667,166.1,53.8,3.87
Harper,95,1627343092,78,4.375,-7.7169,75.88,10.13
Camaná,87,1627343093,87,-16.6228,-72.7111,61.27,11.77
Ixtapa,75,1627342950,74,20.7,-105.2,85.23,6.91
Sola,32,1627343094,78,-13.8833,167.55,80.22,16.58
Waddān,0,1627343094,42,29.1614,16.139,77.36,15.43
Susanville,1,1627343060,22,40.4163,-120.653,93.09,11.01
Lebanon,1,1627343095,80,36.2081,-86.2911,85.1,4.61
Coahuayana Viejo,48,1627343095,76,18.7333,-103.6833,89.08,4.23
Hofn,97,1627343096,82,64.2539,-15.2082,52.56,6.85
Machilipatnam,99,1627343096,72,16.1667,81.1333,82.44,11.01
Cerritos,75,1627343097,68,33.8583,-118.0648,91.65,7.0
North Bend,90,1627343097,86,43.4065,-124.2243,75.24,24.16
Beloha,58,1627343098,68,-25.1667,45.05,61.47,12.24
Alpena,1,1627343098,67,45.0617,-83.4327,80.94,2.77
Dāmghān,0,1627343098,42,36.1683,54.348,80.31,3.87
Muaná,64,1627343099,79,-1.5283,-49.2167,77.81,6.2
Murgab,0,1627343099,35,37.4966,61.9714,85.87,11.5
Qom,0,1627342889,28,34.6401,50.8764,87.33,15.43
Ndélé,100,1627343100,98,8.4109,20.6473,68.32,1.5
Bariloche,0,1627342946,52,-41.1456,-71.3082,37.15,5.75
Sosenskiy,10,1627343100,87,54.059,35.9623,56.91,2.53
Samarai,100,1627343101,86,-10.6167,150.6667,78.76,16.64
Dicabisagan,99,1627343101,60,17.0818,122.4157,85.87,3.06
Humberto de Campos,76,1627343103,85,-2.5983,-43.4611,75.74,4.9
Sharjah city,0,1627343105,48,25.3573,55.4033,96.78,2.3
Whitehorse,90,1627343105,93,60.7161,-135.0538,53.02,10.0
Ateli Mandi,100,1627343105,81,28.1,76.2833,82.83,10.76
Batticaloa,99,1627343106,66,7.7102,81.6924,81.81,5.86
Remanso,42,1627343106,58,-9.6179,-42.0831,76.86,11.3
Yumen,19,1627343107,20,40.2833,97.2,77.58,12.26
Rotunda,42,1627343107,45,43.9833,24.3167,72.73,7.11
Tura,100,1627342845,95,25.5198,90.2201,75.76,4.23
Marzuq,100,1627343108,73,14.4,46.4667,73.81,6.4
Mpika,68,1627343108,89,-11.8343,31.4529,42.31,4.41
Muravlenko,100,1627343109,73,63.7898,74.523,49.37,11.61
Qingdao,20,1627343109,83,36.0986,120.3719,82.0,4.47
Jiazi,100,1627343109,81,22.8779,116.067,85.08,7.85
Plettenberg Bay,33,1627343110,33,-34.0527,23.3716,69.46,18.45
College,75,1627343110,49,64.8569,-147.8028,72.09,12.66
Dvinskoy Bereznik,40,1627343111,89,62.8551,42.7072,41.41,4.99
Alyangula,75,1627343111,100,-13.8483,136.4192,71.47,4.61
Dalbandin,95,1627343112,13,28.8947,64.4101,91.33,4.18
Zhangye,100,1627343034,34,38.9342,100.4517,73.17,11.72
Petropavlovsk-Kamchatskiy,40,1627343112,57,53.0452,158.6483,77.59,11.18
Warri,91,1627343112,75,5.5167,5.75,73.49,4.36
Kununurra,100,1627343113,78,-15.7667,128.7333,73.38,1.14
Ginda,100,1627343113,96,30.6945,78.4932,67.73,1.36
Pomabamba,69,1627343114,68,-8.8333,-77.4667,53.37,4.7
Huilong,100,1627343114,94,31.8111,121.655,80.04,30.4
Xucheng,95,1627343115,78,20.35,110.1288,79.5,17.0
Richards Bay,28,1627343115,59,-28.783,32.0377,61.32,14.79
Comodoro Rivadavia,0,1627343116,49,-45.8667,-67.5,46.26,13.8
Dunedin,66,1627342874,64,-45.8742,170.5036,50.79,9.98
Sotik Post,93,1627343117,84,-0.7813,35.3416,54.91,2.46
Morant Bay,62,1627343117,84,17.8815,-76.4093,83.82,9.31
Coquimbo,0,1627343094,87,-29.9533,-71.3436,55.13,6.91
Zhangjiakou Shi Xuanhua Qu,100,1627343118,76,40.6103,115.0447,72.81,2.64
Sokoni,13,1627343118,75,-6.4333,39.55,75.06,19.75
Rio Grande,100,1627342983,91,-32.035,-52.0986,49.95,17.47
Nanortalik,37,1627343119,78,60.1432,-45.2371,49.15,0.89
Buin,0,1627343119,75,-33.7333,-70.75,55.74,6.64
Port Shepstone,90,1627343120,59,-30.7414,30.455,56.88,6.51
Oshawa,75,1627343061,57,43.9001,-78.8496,86.92,4.61
The Valley,20,1627343120,74,18.217,-63.0578,82.54,11.5
Labuhan,8,1627342949,80,-6.8844,112.2051,74.61,6.38
Coruripe,14,1627343121,89,-10.1256,-36.1756,72.82,10.98
Bone,46,1627343121,84,51.9669,12.1396,69.71,4.99
Cumberland,1,1627343122,60,35.0502,-78.8664,90.48,5.75
Wuwei,100,1627343122,28,37.9281,102.6414,75.79,3.67
Santa Marinella,96,1627343123,81,42.0345,11.8536,80.94,4.74
Doaba,63,1627343124,60,33.4244,70.7364,86.74,3.44
Biu,100,1627343124,97,10.6129,12.1946,67.75,7.92
Vanimo,72,1627342965,68,-2.6741,141.3028,83.14,5.37
Ketchikan,90,1627343073,82,55.3422,-131.6461,61.27,14.97
Bintulu,20,1627343125,94,3.1667,113.0333,79.21,0.0
Sarāhan,100,1627343126,96,31.5167,77.8,67.57,0.09
Grindavik,90,1627342957,93,63.8424,-22.4338,49.95,9.22
Bathsheba,20,1627342897,78,13.2167,-59.5167,81.21,14.97
City of San Pedro,90,1627343127,92,14.35,121.0167,81.16,17.27
Camapuã,1,1627343127,32,-19.5314,-54.0439,75.97,1.32
Los Llanos de Aridane,90,1627343127,95,28.6585,-17.9182,68.13,14.97
Rawson,40,1627343128,81,-43.3002,-65.1023,43.09,17.27
Edineţ,28,1627343128,62,48.1681,27.305,66.42,7.43
Buraidah,43,1627343129,16,26.326,43.975,97.25,12.06
Ouésso,100,1627342850,66,1.6136,16.0517,76.66,2.39
Longyearbyen,75,1627343129,87,78.2186,15.6401,42.64,2.3
Zhigalovo,28,1627343081,58,54.8097,105.1578,69.82,2.39
Aykhal,13,1627343124,41,66.0,111.5,79.88,2.59
Tadpatri,85,1627343130,74,14.9167,78.0167,77.34,17.4
Hambantota,97,1627342871,82,6.1241,81.1185,79.9,16.91
Saint Anthony,1,1627342866,47,45.0205,-93.218,89.74,10.36
Mossendjo,62,1627343131,92,-2.9506,12.7261,64.78,3.11
Kysyl-Syr,16,1627343132,47,63.8986,122.7617,72.52,8.41
